City,Lat,Lng,Max Temp,Humidity,Cloudiness,Wind Speed,Country,Date
Kamaishi,39.2667,141.8833,79.43,78,22,3.31,JP,1626851324
São João da Barra,-21.6403,-41.0511,59.45,76,66,6.93,BR,1626851325
Nantucket,41.2835,-70.0995,72.01,96,1,5.75,US,1626851325
Avarua,-21.2078,-159.775,75.25,88,19,8.05,CK,1626851325
Ponta Delgada,37.7333,-25.6667,68.72,83,40,5.75,PT,1626851326
Belomorsk,64.5232,34.7668,58.46,36,77,9.28,RU,1626851326
San Patricio,28.017,-97.5169,82.83,84,0,0.85,US,1626851327
Dikson,73.5069,80.5464,48.83,62,14,14.29,RU,1626851327
Hobart,-42.8794,147.3294,53.92,65,20,4.0,AU,1626851179
Rikitea,-23.1203,-134.9692,71.6,68,96,23.69,PF,1626851328
Puerto Ayora,-0.7393,-90.3518,72.55,91,82,4.0,EC,1626851328
Saint Paul Harbor,57.79,-152.4072,53.53,97,100,2.75,US,1626851324
Ushuaia,-54.8,-68.3,33.46,80,75,5.75,AR,1626851060
Cidreira,-30.1811,-50.2056,47.41,75,1,8.46,BR,1626851329
Flinders,-34.5833,150.8552,57.79,57,4,3.0,AU,1626851329
Yellowknife,62.456,-114.3525,62.29,72,7,4.0,CA,1626851330
Hilo,19.7297,-155.09,73.8,90,75,4.61,US,1626851139
Yar-Sale,66.8333,70.8333,66.85,51,100,8.88,RU,1626851330
Naraini,25.1833,80.4833,90.23,65,100,7.65,IN,1626851331
Palmer,42.1584,-72.3287,69.17,82,20,5.75,US,1626851331
Saskylakh,71.9167,114.0833,61.18,61,100,12.84,RU,1626851331
Sauda,59.6506,6.3542,58.68,62,8,2.15,NO,1626851277
Cherskiy,68.75,161.3,65.41,40,55,5.84,RU,1626851332
Upernavik,72.7868,-56.1549,43.21,78,99,5.99,GL,1626851333
Belyy Yar,53.6039,91.3903,73.29,64,0,11.18,RU,1626851333
Chardara,41.2547,67.9692,93.85,24,0,9.4,KZ,1626851333
Saint-Philippe,-21.3585,55.7679,76.59,65,20,14.07,RE,1626851334
Atuona,-9.8,-139.0333,77.83,71,100,24.11,PF,1626851259
Arraial do Cabo,-22.9661,-42.0278,63.19,71,100,4.99,BR,1626851335
Lompoc,34.6391,-120.4579,64.08,86,90,4.61,US,1626851335
Jamestown,42.097,-79.2353,66.85,94,90,8.05,US,1626851335
Lebu,-37.6167,-73.65,51.55,94,100,6.69,CL,1626851336
Mossamedes,-15.1961,12.1522,67.08,77,0,2.3,AO,1626851336
Palamós,41.8484,3.1291,83.32,41,1,3.71,ES,1626851337
Valverde del Camino,37.5751,-6.7543,68.92,39,0,2.04,ES,1626851338
Faanui,-16.4833,-151.75,79.57,75,7,22.44,PF,1626851338
Berlevåg,70.8578,29.0864,44.6,81,75,21.85,NO,1626851338
Asău,46.4333,26.4,70.29,88,82,1.61,RO,1626851339
Umm Kaddadah,13.6017,26.6876,84.02,52,100,15.39,SD,1626851339
Ust-Nera,64.5667,143.2,74.26,55,100,4.45,RU,1626851340
Rawson,-43.3002,-65.1023,47.1,62,12,3.33,AR,1626851340
Kapaa,22.0752,-159.319,79.12,80,40,5.01,US,1626851340
Bredasdorp,-34.5322,20.0403,50.29,81,34,19.19,ZA,1626851341
St-Jean-Port-Joli,47.2171,-70.2658,63.88,75,100,4.07,CA,1626851341
Saraza,8.7356,117.78,87.35,63,100,14.34,PH,1626851342
Sola,-13.8833,167.55,79.61,78,0,9.95,VU,1626851342
Acarí,-15.4311,-74.6158,62.55,76,17,1.57,PE,1626851343
Ambilobe,-13.2,49.05,85.59,32,8,11.65,MG,1626851343
Tasiilaq,65.6145,-37.6368,39.36,99,100,2.37,GL,1626851343
North Bend,43.4065,-124.2243,56.16,90,20,4.61,US,1626851344
Ereymentau,51.6199,73.1033,76.78,39,0,11.21,KZ,1626851344
Vaini,-21.2,-175.2,73.56,94,20,4.61,TO,1626851345
Bengkulu,-3.8004,102.2655,84.15,68,16,7.09,ID,1626851090
Yurgamysh,55.3714,64.4656,80.2,47,11,16.33,RU,1626851345
Port Alfred,-33.5906,26.891,54.07,60,5,18.7,ZA,1626851346
Butaritari,3.0707,172.7902,82.58,75,27,11.7,KI,1626851346
Makakilo City,21.3469,-158.0858,77.32,71,1,3.44,US,1626851347
Stephenville,32.2207,-98.2023,73.92,88,1,0.0,US,1626851347
Varėna,54.2167,24.5667,68.49,63,3,8.95,LT,1626851347
Kapoeta,4.7717,33.5903,79.05,62,40,14.14,SS,1626851348
Bluff,-46.6,168.3333,43.81,84,100,2.21,NZ,1626851348
Punta Arenas,-53.15,-70.9167,32.11,93,0,6.91,CL,1626851348
Margate,51.3813,1.3862,72.95,78,0,7.74,GB,1626851349
Kutum,14.2,24.6667,81.25,47,42,17.58,SD,1626851349
Albany,42.6001,-73.9662,65.39,95,76,3.74,US,1626851248
Mataura,-46.1927,168.8643,43.48,92,100,0.78,NZ,1626851350
Zyryanka,65.75,150.85,72.46,53,100,3.67,RU,1626851350
Rapid Valley,44.0625,-103.1463,79.65,56,90,4.0,US,1626851351
Tezu,27.9167,96.1667,95.23,56,98,3.91,IN,1626851351
Forestville,38.8451,-76.875,76.23,85,1,5.75,US,1626851352
Changji,44.0167,87.3167,95.79,16,0,8.95,CN,1626851352
Pangnirtung,66.1451,-65.7125,41.22,99,100,6.02,CA,1626851352
Khatanga,71.9667,102.5,54.57,92,100,12.95,RU,1626851353
Qaanaaq,77.484,-69.3632,36.39,97,100,11.07,GL,1626851353
Comodoro Rivadavia,-45.8667,-67.5,39.06,75,0,3.44,AR,1626851353
Illapel,-31.6308,-71.1653,58.87,27,97,1.39,CL,1626851228
Catió,11.2833,-15.25,78.44,87,100,5.5,GW,1626851354
Sitka,57.0531,-135.33,55.29,82,90,10.36,US,1626851066
Portland,45.5234,-122.6762,63.46,72,0,1.01,US,1626850816
Bouca,6.5105,18.2733,74.1,86,99,1.39,CF,1626851355
Saint George,37.1041,-113.5841,84.94,46,1,5.01,US,1626851355
Vila Velha,-20.3297,-40.2925,58.95,88,0,2.3,BR,1626851356
Fortuna,40.5982,-124.1573,56.93,73,90,3.0,US,1626851356
São Filipe,14.8961,-24.4956,75.61,80,23,2.93,CV,1626851356
Mayo,38.8876,-76.5119,77.11,88,1,1.01,US,1626851357
Grafton,42.207,-71.6856,69.82,86,1,3.44,US,1626851357
Touros,-5.1989,-35.4608,70.7,89,3,13.31,BR,1626851357
Gushikawa,26.3544,127.8686,81.99,89,75,39.12,JP,1626851358
Kjøllefjord,70.9457,27.3465,44.65,87,75,20.71,NO,1626851358
Bada,51.392,109.8717,61.74,96,100,4.94,RU,1626851359
New Norfolk,-42.7826,147.0587,53.58,67,89,4.0,AU,1626851359
Saint-Pierre,-21.3393,55.4781,76.68,61,12,5.75,RE,1626851360
Chokurdakh,70.6333,147.9167,58.66,58,80,11.56,RU,1626851360
Souillac,-20.5167,57.5167,76.35,67,24,17.85,MU,1626851360
Clyde River,70.4692,-68.5914,35.83,93,90,16.11,CA,1626851361
Sur,22.5667,59.5289,99.54,44,23,10.4,OM,1626851361
Keti Bandar,24.1447,67.4497,86.34,76,100,26.64,PK,1626851361
Korāput,18.8167,82.7167,71.37,93,100,12.37,IN,1626851362
Isla Mujeres,21.2311,-86.731,81.55,83,5,11.1,MX,1626851362
Ribeira Grande,38.5167,-28.7,68.4,83,75,9.22,PT,1626851363
Nikolskoye,59.7035,30.7861,64.8,47,14,4.83,RU,1626851363
Cape Town,-33.9258,18.4232,52.88,88,75,3.0,ZA,1626851184
Ulaanbaatar,47.9077,106.8832,69.93,68,40,8.95,MN,1626851133
Buraidah,26.326,43.975,106.16,8,10,15.28,SA,1626851364
Busselton,-33.65,115.3333,62.04,77,100,9.66,AU,1626851364
Harper,4.375,-7.7169,76.32,74,100,5.99,LR,1626851364
East London,-33.0153,27.9116,56.44,54,6,19.48,ZA,1626851365
Carnarvon,-24.8667,113.6333,71.67,63,6,13.8,AU,1626851365
Qaqortoq,60.7167,-46.0333,46.9,99,100,6.82,GL,1626851366
Port Elizabeth,-33.918,25.5701,50.09,60,1,12.41,ZA,1626851366
Marathon,44.9,-89.7668,64.15,74,90,11.5,US,1626851366
Tuktoyaktuk,69.4541,-133.0374,63.64,56,7,13.53,CA,1626851367
Klaksvík,62.2266,-6.589,54.52,91,99,9.08,FO,1626851367
Wanning,18.8003,110.3967,83.44,83,94,1.16,CN,1626851368
Buin,-33.7333,-70.75,62.74,17,99,3.02,CL,1626851368
Provideniya,64.3833,-173.3,45.27,80,88,1.21,RU,1626851368
Kahului,20.8947,-156.47,76.26,80,40,17.27,US,1626851369
Grand-Lahou,5.1367,-5.0242,75.97,83,100,6.15,CI,1626851369
Arrecife,28.963,-13.5477,68.07,77,20,6.91,ES,1626851370
Luena,-11.7833,19.9167,64.74,30,0,5.79,AO,1626851370
Saint-Joseph,-21.3667,55.6167,75.58,64,15,12.93,RE,1626851370
Payakumbuh,-0.2202,100.6308,89.13,41,95,4.03,ID,1626851371
Shancheng,34.7953,116.0817,79.95,86,100,8.95,CN,1626851371
Departamento de Maldonado,-34.6667,-54.9167,49.23,73,0,7.85,UY,1626851220
Marsá Maţrūḩ,31.3525,27.2453,82.49,62,0,9.42,EG,1626851372
Muros,42.7762,-9.0603,65.08,88,65,5.14,ES,1626851372
Kaili,-3.4626,120.2147,68.02,98,100,2.04,ID,1626851373
Vanimo,-2.6741,141.3028,83.43,71,80,4.94,PG,1626851373
Batemans Bay,-35.7167,150.1833,52.99,55,11,9.17,AU,1626851373
Mar del Plata,-38.0023,-57.5575,47.12,2,6,4.0,AR,1626851374
Hithadhoo,-0.6,73.0833,81.7,77,100,12.19,MV,1626851374
Chernyshevskiy,63.0128,112.4714,72.61,54,100,9.66,RU,1626851374
Barrow,71.2906,-156.7887,35.62,93,90,19.57,US,1626851101
Chennai,13.0878,80.2785,91.38,58,75,12.66,IN,1626851329
Khuzdar,27.7384,66.6434,91.76,11,0,28.3,PK,1626851375
Gold Coast,-28.0,153.4333,61.3,50,2,4.0,AU,1626851222
Longyearbyen,78.2186,15.6401,40.84,81,75,2.3,SJ,1626851376
Dauphin,51.1494,-100.0502,66.34,95,90,11.5,CA,1626851376
Saldanha,-33.0117,17.9442,55.22,67,87,19.95,ZA,1626851377
Lagoa,39.05,-27.9833,67.53,70,100,17.31,PT,1626851377
Kruisfontein,-34.0033,24.7314,47.88,61,0,8.12,ZA,1626851378
Hashtrūd,37.4779,47.0508,88.0,20,3,8.86,IR,1626851378
Piaçabuçu,-10.4056,-36.4344,73.47,79,0,9.82,BR,1626851378
Roebourne,-20.7833,117.1333,86.13,36,8,10.78,AU,1626851379
Gubkinskiy,64.434,76.5026,76.8,48,100,19.64,RU,1626851379
Coyhaique,-45.5752,-72.0662,40.95,100,90,4.61,CL,1626851380
Gmina Jędrzejów,50.6394,20.3045,67.62,67,52,5.01,PL,1626851380
Meulaboh,4.1363,96.1285,85.39,63,100,5.28,ID,1626851381
Sabha,27.0377,14.4283,84.79,38,0,14.45,LY,1626851381
Teknāf,20.8624,92.3058,86.16,77,40,12.73,BD,1626851382
Vao,-22.6667,167.4833,70.07,74,10,12.01,NC,1626851382
Borogontsy,62.6683,131.1683,77.16,55,100,6.8,RU,1626851383
Tiksi,71.6872,128.8694,42.82,73,46,6.13,RU,1626851383
Tual,-5.6667,132.75,80.51,78,90,20.67,ID,1626851384
Iqaluit,63.7506,-68.5145,42.53,86,75,11.01,CA,1626851384
Hermanus,-34.4187,19.2345,50.81,86,100,25.12,ZA,1626851384
Codrington,-38.2667,141.9667,50.9,83,100,8.75,AU,1626851385
Atambua,-9.1061,124.8925,82.24,54,25,1.72,ID,1626851385
Severo-Kuril'sk,50.6789,156.125,54.54,88,36,5.48,RU,1626851385
Oliveira dos Brejinhos,-12.3169,-42.8961,67.01,66,6,10.47,BR,1626851386
Tirumullaivāsal,11.2333,79.8333,92.55,46,100,12.91,IN,1626851386
Kavaratti,10.5669,72.642,82.13,81,100,20.07,IN,1626851387
Nanortalik,60.1432,-45.2371,46.9,97,100,14.32,GL,1626851387
Castro,-24.7911,-50.0119,42.6,57,100,1.77,BR,1626851387
Dhidhdhoo,6.8833,73.1,83.3,75,100,15.48,MV,1626851388
Ifanadiana,-21.3,47.6333,62.17,98,100,0.67,MG,1626851237
Sardārshahr,28.4333,74.4833,94.35,51,57,6.6,IN,1626851388
Auki,-8.7676,160.7034,80.04,79,25,2.95,SB,1626851389
Kununurra,-15.7667,128.7333,89.58,12,6,5.75,AU,1626851389
Lorengau,-2.0226,147.2712,84.34,69,97,5.41,PG,1626851390
Batagay,67.6333,134.6333,68.65,43,100,8.05,RU,1626851390
Paita,-5.0892,-81.1144,65.43,84,0,7.7,PE,1626851390
Qasigiannguit,68.8193,-51.1922,44.85,86,99,3.47,GL,1626851391
Lüderitz,-26.6481,15.1594,50.86,56,0,17.4,NA,1626851391
Barcelona,41.3888,2.159,82.9,63,0,1.99,ES,1626851099
Havøysund,70.9963,24.6622,45.48,84,100,31.12,NO,1626851392
Parīchhatgarh,28.9833,77.9333,83.91,76,100,5.99,IN,1626851392
San Cristobal,7.7669,-72.225,64.24,97,71,4.65,VE,1626851393
Bereda,43.2686,-7.5406,65.41,100,84,0.54,ES,1626851393
Mocuba,-16.8392,36.9856,75.94,58,0,4.0,MZ,1626851393
George Town,5.4112,100.3354,91.33,66,20,11.5,MY,1626851394
Pangody,65.85,74.4859,71.44,60,100,16.2,RU,1626851394
Coquimbo,-29.9533,-71.3436,47.93,100,90,8.05,CL,1626851252
Luocheng,29.3848,104.0286,91.15,53,33,4.41,CN,1626851395
Yining,29.0361,114.5636,93.69,51,100,4.81,CN,1626851395
Marsala,37.7966,12.4352,78.93,71,0,7.05,IT,1626851396
Wajid,3.8093,43.2471,82.27,51,50,24.7,SO,1626851396
Mahébourg,-20.4081,57.7,76.24,67,5,18.61,MU,1626851396
Muriti,-1.9833,32.9167,73.33,54,5,10.33,TZ,1626851397
Pevek,69.7008,170.3133,44.24,63,67,7.67,RU,1626851397
Chermoz,58.787,56.1489,63.99,76,74,10.2,RU,1626851398
Hasaki,35.7333,140.8333,95.29,69,7,10.36,JP,1626851398
Finnsnes,69.2296,17.9811,47.01,95,100,18.54,NO,1626851398
Chapais,49.7834,-74.8492,48.06,72,21,4.59,CA,1626851341
Rincon,32.296,-81.2354,75.85,93,1,8.05,US,1626851399
Redmond,47.674,-122.1215,62.08,70,25,1.01,US,1626851399
Kabompo,-13.5927,24.2008,64.65,35,2,6.44,ZM,1626851400
Ous,60.9058,61.5186,64.08,98,100,5.41,RU,1626851400
Iregszemcse,46.6929,18.1858,67.32,57,0,14.23,HU,1626851401
Whitley Bay,55.0397,-1.4471,67.15,98,90,1.14,GB,1626851364
Huarmey,-10.0681,-78.1522,63.28,84,19,4.9,PE,1626851401
Muravlenko,63.7898,74.523,76.46,51,100,17.25,RU,1626851402
Pisco,-13.7,-76.2167,60.85,88,90,8.05,PE,1626851403
Noumea,-22.2763,166.4572,73.0,99,27,9.64,NC,1626851404
Yazman,29.1212,71.7446,99.14,44,2,3.83,PK,1626851294
Lima,-12.0432,-77.0282,61.14,82,90,6.91,PE,1626851224
Canchungo,12.0672,-16.0333,78.22,86,100,4.88,GW,1626851405
Porto-Vecchio,41.591,9.2795,81.93,73,0,2.3,FR,1626851405
Miran Shah,33.0086,70.0697,86.34,51,25,10.36,PK,1626851406
Sabang,5.8933,95.3214,83.07,77,100,26.96,ID,1626851406
Taltal,-25.4,-70.4833,57.79,66,76,1.12,CL,1626851407
Saint-Augustin,51.226,-58.6502,55.56,88,79,5.28,CA,1626851213
Muscat,23.6139,58.5922,100.42,49,94,7.94,OM,1626851407
Pozo Colorado,-23.4923,-58.7972,53.51,45,80,3.42,PY,1626851408
Geraldton,-28.7667,114.6,68.41,73,75,18.41,AU,1626851408
Camacha,33.0833,-16.3333,66.96,77,40,10.36,PT,1626851408
Hambantota,6.1241,81.1185,88.9,60,98,23.67,LK,1626851409
Tongliao,43.6125,122.2653,89.87,45,100,10.49,CN,1626851409
Viedma,-40.8135,-62.9967,45.99,53,85,7.25,AR,1626851410
Boyolangu,-8.1181,111.8935,82.96,68,23,9.71,ID,1626851410
Iralaya,15.0,-83.2333,80.37,87,100,13.27,HN,1626851410
Norman Wells,65.282,-126.8329,67.46,55,20,7.87,CA,1626851411
Plettenberg Bay,-34.0527,23.3716,50.09,67,3,9.57,ZA,1626851411
Pacific Grove,36.6177,-121.9166,62.58,90,75,4.0,US,1626851411
Bandarbeyla,9.4942,50.8122,87.6,45,18,27.96,SO,1626851412
Thompson,55.7435,-97.8558,58.26,65,5,2.46,CA,1626851412
Presidencia Roque Sáenz Peña,-26.7852,-60.4388,43.93,50,0,4.72,AR,1626851413
Torbay,47.6666,-52.7314,68.76,98,90,19.57,CA,1626851413
Mergen,49.1833,125.2167,86.11,70,32,7.18,CN,1626851413
Grindavik,63.8424,-22.4338,50.56,100,75,16.11,IS,1626851414
Cabo San Lucas,22.8909,-109.9124,86.61,59,88,3.0,MX,1626851208
Alice Town,25.7167,-79.3,82.99,76,100,7.34,BS,1626851414
Nizhniy Odes,63.6445,54.856,70.95,33,6,4.41,RU,1626851415
Queenstown,51.8572,-8.2992,66.11,94,75,6.91,IE,1626851415
Narsaq,60.9167,-46.05,46.62,99,100,5.06,GL,1626851415
Trairi,-3.2778,-39.2689,76.89,80,5,13.15,BR,1626851171
Laguna de Perlas,12.3429,-83.6712,79.23,89,66,12.75,NI,1626851416
Pontianak,-0.0333,109.3333,89.58,66,40,8.05,ID,1626851416
Algiers,36.7525,3.042,71.42,73,0,2.3,DZ,1626851417
Kavieng,-2.5744,150.7967,83.61,73,97,8.21,PG,1626851417
Tommot,58.9564,126.2925,63.19,91,100,9.42,RU,1626851418
Prince Rupert,54.3161,-130.3201,57.29,88,90,3.44,CA,1626851335
Governador Valadares,-18.8511,-41.9494,60.01,83,0,2.48,BR,1626851418
Haines Junction,60.7522,-137.5108,55.49,78,100,5.46,CA,1626851419
Varkala,8.7341,76.7067,83.98,71,100,13.69,IN,1626851419
Brufut,13.3814,-16.7518,80.69,94,75,0.0,GM,1626851419
Hamilton,39.1834,-84.5333,70.77,91,1,0.0,US,1626851296
Jucurutu,-6.0339,-37.0203,72.23,73,0,9.69,BR,1626851420
Marsh Harbour,26.5412,-77.0636,82.17,80,69,10.78,BS,1626851420
Sørkjosen,69.8,20.9333,45.52,94,100,13.58,NO,1626851421
Whitehorse,60.7161,-135.0538,64.31,52,13,8.01,CA,1626851421
Mount Isa,-20.7333,139.5,74.97,23,97,11.5,AU,1626851421
Syas'stroy,60.1367,32.5691,61.68,53,13,11.61,RU,1626851422
Denpasar,-8.65,115.2167,83.86,79,40,13.8,ID,1626851422
Samarai,-10.6167,150.6667,79.41,75,41,13.58,PG,1626851423
Puerto Colombia,10.9878,-74.9547,82.49,83,10,22.84,CO,1626851423
Whitecourt,54.1502,-115.6855,54.45,94,7,2.73,CA,1626851423
Kungurtug,50.5994,97.5228,78.55,33,62,2.33,RU,1626851424
Fes,34.0372,-4.9998,68.25,55,0,2.3,MA,1626851364
Faya,18.3851,42.4509,64.92,69,98,8.16,SA,1626851424
Bartlesville,36.7473,-95.9808,72.16,94,1,0.0,US,1626851425
Smithers,54.7804,-127.1743,50.99,91,74,3.04,CA,1626851425
Towada,40.6127,141.2067,87.48,65,29,8.19,JP,1626851426
Mnogovershinnyy,53.9353,139.9242,83.97,49,51,9.53,RU,1626851426
Maragogi,-9.0122,-35.2225,72.9,88,27,10.11,BR,1626851427
Abnūb,27.2696,31.1511,98.82,18,5,7.07,EG,1626851427
La Ronge,55.1001,-105.2842,59.58,73,76,5.14,CA,1626851427
Hervey Bay,-25.2986,152.8535,63.03,39,56,4.0,AU,1626851428
Tahe,52.3333,124.7333,89.26,40,100,7.0,CN,1626851428
Adrar,20.5022,-10.0711,85.1,14,22,16.17,MR,1626851429
San Quintín,30.4833,-115.95,69.48,88,9,9.13,MX,1626851429
Ust'-Ilimsk,58.0006,102.6619,77.54,35,100,4.76,RU,1626851429
Pedernales,18.0384,-71.744,79.11,67,51,4.99,DO,1626851430
Kiryat Gat,31.61,34.7642,85.78,10,0,8.9,IL,1626851430
Harrisonville,38.6533,-94.3488,72.28,81,1,0.0,US,1626851431
Tadine,-21.55,167.8833,71.46,86,44,4.68,NC,1626851431
Port Macquarie,-31.4333,152.9167,56.37,63,97,20.78,AU,1626851431
Port Keats,-14.25,129.55,84.47,32,99,8.37,AU,1626851432
Pangai,-19.8,-174.35,77.61,72,6,14.29,TO,1626851432
Alofi,-19.0595,-169.9187,76.42,75,14,17.54,NU,1626851433
Rupert,42.6191,-113.6772,71.49,64,1,0.0,US,1626851433
Buritis,-15.6178,-46.4233,65.1,56,0,3.85,BR,1626851433
Katsuura,35.1333,140.3,91.51,68,10,7.9,JP,1626851203
Dosso,13.049,3.1937,81.86,63,97,12.15,NE,1626851434
Itoman,26.1247,127.6694,82.78,89,75,31.07,JP,1626851434
Leh,34.1667,77.5833,67.15,38,98,5.91,IN,1626851337
Qiqihar,47.3408,123.9672,90.61,52,62,5.46,CN,1626851435
Villa San Giovanni,38.2276,15.6386,83.61,67,0,1.99,IT,1626851435
Bangassou,4.7413,22.8184,72.09,83,100,0.85,CF,1626851436
Okhotsk,59.3833,143.3,58.23,88,100,7.74,RU,1626851436
Alice Springs,-23.7,133.8833,72.95,25,4,10.36,AU,1626851190
Qinhuangdao,39.9317,119.5883,82.18,75,100,8.32,CN,1626851437
Leningradskiy,69.3833,178.4167,37.2,69,48,5.97,RU,1626851437
São Félix do Xingu,-6.6447,-51.995,69.24,57,20,0.85,BR,1626851438
Lata,40.1629,-8.3327,62.92,85,56,2.64,PT,1626851438
Kanniyākumāri,8.0833,77.5667,85.06,64,100,24.85,IN,1626851438
Lavrentiya,65.5833,-171.0,42.13,91,100,5.5,RU,1626851439
Mount Gambier,-37.8333,140.7667,50.23,80,86,5.75,AU,1626851439
Umluj,25.0213,37.2685,90.1,66,100,16.89,SA,1626851440
Vila Franca do Campo,37.7167,-25.4333,68.41,88,100,8.88,PT,1626851440
Shelabolikha,53.4131,82.6167,76.46,37,0,9.93,RU,1626851441
Ahipara,-35.1667,173.1667,55.67,94,100,5.44,NZ,1626851441
Henties Bay,-22.116,14.2845,53.85,83,0,13.82,NA,1626851441
Dutse,11.7594,9.3392,77.76,75,100,11.65,NG,1626851442
Najrān,17.4924,44.1277,89.47,33,100,4.45,SA,1626851442
Thrissur,10.5167,76.2167,84.27,76,100,8.52,IN,1626851443
Nouadhibou,20.931,-17.0347,69.13,82,20,10.45,MR,1626851443
Carinhanha,-14.3047,-43.765,67.78,71,59,6.85,BR,1626851444
Requena,39.4883,-1.1004,73.0,45,0,1.66,ES,1626851444
Pitimbu,-7.4706,-34.8086,70.39,87,59,10.92,BR,1626851444
Kitimat,54.0524,-128.6534,58.91,88,99,3.6,CA,1626851445
Novobohdanivka,47.0819,35.3272,87.89,48,20,7.74,UA,1626851445
Broken Hill,-31.95,141.4333,51.17,40,100,5.44,AU,1626851445
Esperance,-33.8667,121.9,60.64,89,98,20.42,AU,1626851446
Xai-Xai,-25.0519,33.6442,71.46,45,0,12.35,MZ,1626851446
Bundaberg,-24.85,152.35,63.21,29,1,3.0,AU,1626851447
Westport,41.1415,-73.3579,76.98,84,75,4.0,US,1626851447
Husavik,66.0449,-17.3389,58.06,69,100,7.81,IS,1626851447
Payo,-3.7508,103.6372,93.54,41,74,2.62,ID,1626851448
Timrå,62.487,17.3257,59.68,53,40,17.27,SE,1626851448
Bratsk,56.1325,101.6142,79.29,49,54,3.94,RU,1626851449
Yumen,40.2833,97.2,83.16,31,100,4.9,CN,1626851449
Ürümqi,43.801,87.6005,92.35,16,0,8.95,CN,1626851312
Bethel,41.3712,-73.414,73.71,84,13,2.62,US,1626851167
Paamiut,61.994,-49.6678,43.25,93,100,1.07,GL,1626851450
Dongsheng,39.8161,109.9776,75.65,54,98,19.8,CN,1626851450
Valparaíso,-33.0393,-71.6273,52.72,87,90,3.44,CL,1626851451
Mitú,1.1983,-70.1733,69.76,99,100,2.19,CO,1626851451
Katima Mulilo,-17.5,24.2667,63.73,37,17,4.7,NA,1626851451
Karratha,-20.7377,116.8463,83.57,44,19,13.2,AU,1626851452
Talladega,33.4359,-86.1058,73.99,100,1,0.0,US,1626851452
Santa Fe,-31.6333,-60.7,45.01,71,0,1.99,AR,1626851453
Hualmay,-11.0964,-77.6139,62.04,85,11,5.55,PE,1626851453
Porto-Novo,6.4965,2.6036,76.86,77,100,7.23,BJ,1626851453
Arrondissement de Villeneuve-sur-Lot,44.5,0.6667,68.72,91,0,5.32,FR,1626851454
Gondanglegi,-7.7479,112.0132,88.14,54,32,13.33,ID,1626851454
Mataram,-8.5833,116.1167,88.61,61,63,12.68,ID,1626851436
Puerto del Rosario,28.5004,-13.8627,67.75,77,20,16.11,ES,1626851455
Hofn,64.2539,-15.2082,54.97,77,80,3.96,IS,1626851455
Alice,27.7523,-98.0697,80.38,100,20,4.61,US,1626851456
Sept-Îles,50.2001,-66.3821,60.06,65,100,1.99,CA,1626851312
Wairoa,-39.0333,177.3667,57.54,68,100,5.99,NZ,1626851456
Pingdu,36.7844,119.9464,87.98,55,97,11.61,CN,1626851456
Izhma,65.0083,53.9113,67.21,43,100,7.58,RU,1626851457
Arman',59.7,150.1667,58.68,81,15,8.37,RU,1626851457
Abu Dhabi,24.4667,54.3667,100.51,39,20,8.05,AE,1626851193
Nanzhang,31.7765,111.8386,85.86,79,95,4.52,CN,1626851458
Kirakira,-10.4544,161.9205,79.97,83,30,8.77,SB,1626851458
Chalmette,29.9427,-89.9634,80.01,84,1,1.01,US,1626851459
Jupiter,26.9342,-80.0942,80.02,91,100,1.01,US,1626851200
Belmonte,-15.8631,-38.8828,66.7,87,100,14.05,BR,1626851459
Vostok,46.4856,135.8833,87.06,46,92,3.83,RU,1626851460
Kenai,60.5544,-151.2583,56.03,98,90,0.0,US,1626851460
General Pico,-35.6566,-63.7568,45.41,50,16,5.41,AR,1626851461
Nefteyugansk,61.0998,72.6035,79.05,44,91,14.74,RU,1626851340
Kieta,-6.2167,155.6333,81.14,82,100,8.25,PG,1626851461
Labuhan,-6.8844,112.2051,88.29,56,96,8.28,ID,1626851461
Tiznit Province,29.5833,-9.5,78.75,39,0,5.08,MA,1626851462
Brigham City,41.5102,-112.0155,78.26,46,1,11.01,US,1626851250
Aripuanã,-9.1667,-60.6333,67.66,61,1,3.06,BR,1626851463
Vestmannaeyjar,63.4427,-20.2734,52.21,98,100,10.51,IS,1626851463
Sisimiut,66.9395,-53.6735,43.16,87,100,4.9,GL,1626851464
Nicoya,10.1483,-85.452,75.36,86,9,5.5,CR,1626851464
Mehamn,71.0357,27.8492,44.78,87,75,20.71,NO,1626851464
Ranong,9.9658,98.6348,82.2,83,100,16.06,TH,1626851465
Sinnamary,5.3833,-52.95,77.04,87,14,5.21,GF,1626851465
Madarounfa,13.3087,7.156,82.02,60,100,14.36,NE,1626851466
Fort Nelson,58.8053,-122.7002,56.79,100,75,2.3,CA,1626851466
Ancud,-41.8697,-73.8203,49.53,95,100,3.49,CL,1626851466
Visnes,59.3556,5.2242,58.82,77,0,13.8,NO,1626851467
Dūkštas,55.5333,26.3333,66.79,63,1,9.64,LT,1626851468
Tuy Hoa,13.0833,109.3,94.06,48,93,12.12,VN,1626851274
Abhā,18.2164,42.5053,64.65,88,40,11.5,SA,1626851468
Tacub,8.1875,124.1081,89.37,61,100,13.47,PH,1626851469
Port Hardy,50.6996,-127.4199,52.99,91,14,3.58,CA,1626851469
Lerwick,60.1545,-1.1494,51.8,83,61,6.87,GB,1626851469
San Borja,-14.8167,-66.85,58.96,63,53,3.44,BO,1626851470
Mpigi,0.225,32.3136,78.31,44,32,1.95,UG,1626851470
Majene,-3.5403,118.9707,79.21,80,100,13.15,ID,1626851470
Cayenne,4.9333,-52.3333,77.09,89,20,0.0,GF,1626851471
Yamethin,20.4333,96.15,85.51,72,64,14.61,MM,1626851471
Ullapool,57.8987,-5.1604,59.76,86,92,2.24,GB,1626851472
Cockburn Town,21.4612,-71.1419,81.23,81,0,20.33,TC,1626851472
Caravelas,-17.7125,-39.2481,71.35,69,100,9.1,BR,1626851472
Yenagoa,4.9247,6.2642,76.96,80,78,3.47,NG,1626851473
Mersin Province,36.862,34.6509,85.35,50,0,5.21,TR,1626851473
Dakar,14.6937,-17.4441,77.88,79,98,8.01,SN,1626851180
Airai,-8.9266,125.4092,72.81,47,52,4.54,TL,1626851474
Kandrian,-6.2167,149.55,79.57,86,34,11.52,PG,1626851474
Losal,27.4,74.9167,90.52,55,90,10.11,IN,1626851474
Mandalgovi,45.7625,106.2708,85.03,33,100,15.01,MN,1626851475
Kristiansund,63.1115,7.732,56.05,58,40,8.05,NO,1626851475
Kasongo-Lunda,-6.4667,16.8167,74.91,28,2,0.13,CD,1626851476
Kalabo,-14.97,22.6814,64.04,35,6,8.55,ZM,1626851476
Peterhead,57.5058,-1.7981,61.11,89,56,2.98,GB,1626851477
Hailar,49.2,119.7,88.79,47,60,7.09,CN,1626851477
Kaeo,-35.1,173.7833,56.32,95,100,6.06,NZ,1626851477
Salto,-31.3833,-57.9667,36.88,98,0,1.99,UY,1626851183
Pedini,39.5997,20.8433,81.57,69,20,2.3,GR,1626851478
Sukumo,32.9333,132.7333,81.99,73,100,11.21,JP,1626851478
Aykhal,66.0,111.5,67.01,66,100,16.13,RU,1626851479
Olafsvik,64.8945,-23.7142,50.95,90,100,16.71,IS,1626851479
Houston,29.7633,-95.3633,80.74,83,75,1.01,US,1626850994
Gunjur,13.2019,-16.7339,80.67,94,75,0.0,GM,1626851480
Kuytun,54.3419,101.5036,80.92,43,0,1.92,RU,1626851480
Chui,-33.6971,-53.4616,41.36,83,0,7.4,UY,1626851481
Banfora,10.6333,-4.7667,73.15,81,26,4.63,BF,1626851481
Batavia,41.85,-88.3126,68.09,82,40,1.01,US,1626850970
Hammerfest,70.6634,23.6821,46.13,76,75,20.71,NO,1626851482
Kudahuvadhoo,2.6708,72.8944,82.76,72,100,12.12,MV,1626851482
Inhambane,-23.865,35.3833,72.97,68,0,11.07,MZ,1626851482
São Paulo de Olivença,-3.3783,-68.8725,70.79,87,53,0.98,BR,1626851483
Satinka,52.3792,41.6819,81.19,41,97,7.2,RU,1626851483
Galesong,-5.3166,119.3661,86.02,82,100,3.74,ID,1626851484
Urengoy,65.9667,78.3667,74.05,44,100,15.77,RU,1626851484
Saint Anthony,45.0205,-93.218,71.49,81,1,3.0,US,1626851484
Cururupu,-1.8283,-44.8683,73.54,97,25,3.29,BR,1626851485
Rumoi,43.9344,141.6428,79.66,66,98,3.96,JP,1626851485
Kachīry,53.0675,76.1036,78.51,39,0,9.06,KZ,1626851485
Balyqshy,47.0667,51.8667,98.6,25,0,6.71,KZ,1626851486
Mayumba,-3.432,10.6554,73.8,80,92,9.04,GA,1626851486
Duma,34.7653,108.135,79.25,62,77,8.34,CN,1626851487
Quthing,-30.4,27.7003,40.41,74,100,5.66,LS,1626851487
Andilamena,-17.0167,48.5833,62.65,75,60,14.23,MG,1626851487
Poum,-20.2333,164.0167,71.22,65,0,7.43,NC,1626851488
Aklavik,68.2191,-135.0107,74.93,37,100,7.72,CA,1626851488
Porto Seguro,-16.4497,-39.0647,66.72,94,75,6.91,BR,1626851489
Muyezerskiy,63.9333,31.65,56.53,41,13,10.09,RU,1626851489
Nome,64.5011,-165.4064,46.47,87,90,18.41,US,1626851324
Zambezi,-13.5432,23.1047,64.89,33,29,8.01,ZM,1626851490
Shiyan,32.6475,110.7781,82.42,72,100,6.93,CN,1626851490
Limulunga,-15.0969,23.1376,65.48,35,18,8.14,ZM,1626851490
Abashiri,44.0213,144.2697,65.26,89,32,8.81,JP,1626851491
Edmonds,47.8107,-122.3774,61.36,77,90,8.05,US,1626851491
Vung Tau,10.346,107.0843,85.24,71,85,18.32,VN,1626851492
Port Blair,11.6667,92.75,84.56,76,97,24.49,IN,1626851492
Necochea,-38.5473,-58.7368,45.18,80,4,5.1,AR,1626851492
Riyadh,24.6877,46.7219,104.14,24,13,4.36,SA,1626851277
Chaplygin,53.2432,39.9629,76.8,45,100,5.97,RU,1626851493
Mahibadhoo,3.7833,72.9667,83.32,74,100,13.27,MV,1626851493
Miles City,46.4083,-105.8406,79.52,56,20,8.05,US,1626851494
Lesnoye,58.2841,35.5158,68.68,52,25,8.5,RU,1626851494
Bushehr,28.9684,50.8385,96.57,61,7,4.54,IR,1626851495
San,13.3034,-4.8956,79.9,65,11,14.41,ML,1626851495
Motril,36.7507,-3.5179,85.82,48,0,4.05,ES,1626851496
Sunndalsøra,62.6754,8.5515,56.05,60,22,2.13,NO,1626851496
Takayama,36.1333,137.25,82.94,83,49,2.53,JP,1626851496
Beitbridge,-22.2167,30.0,66.4,32,0,4.99,ZW,1626851497
Naberera,-4.2,36.9333,64.33,64,57,11.52,TZ,1626851497
Constitución,-35.3333,-72.4167,54.32,79,100,4.52,CL,1626851498
Tessalit,20.1986,1.0114,91.89,34,88,19.6,ML,1626851498
Kasempa,-13.4584,25.8338,66.65,35,0,4.79,ZM,1626851498
Imbituba,-28.24,-48.6703,55.81,78,100,3.87,BR,1626851499
Ivanava,52.1451,25.5365,66.72,67,97,11.77,BY,1626851499
Esna,25.2934,32.554,100.89,16,9,15.7,EG,1626851500
San Miguelito,9.0333,-79.5,83.55,88,90,1.99,PA,1626851386
Mékhé,15.1097,-16.6218,77.56,75,97,7.54,SN,1626851500
Nortelândia,-14.4547,-56.8028,59.16,37,4,1.81,BR,1626851501
Iracoubo,5.4802,-53.2011,75.99,90,13,5.14,GF,1626851501
Champerico,14.3,-91.9167,80.04,83,19,5.61,GT,1626851501
Nogales,31.3086,-110.9422,79.29,83,1,4.61,MX,1626851502
Akureyri,65.6835,-18.0878,60.93,63,100,8.86,IS,1626851502
Katangli,51.7102,143.2326,62.13,76,100,12.77,RU,1626851503
Río Gallegos,-51.6226,-69.2181,28.45,86,0,3.44,AR,1626851503
Kaitangata,-46.2817,169.8464,44.92,78,100,1.36,NZ,1626851503
Kolyvan',55.3053,82.7391,76.62,41,0,7.72,RU,1626851504
Broome,42.2506,-75.833,66.02,90,90,1.99,US,1626851504
Port-Gentil,-0.7193,8.7815,74.71,80,92,10.38,GA,1626851505
Beringovskiy,63.05,179.3167,46.56,85,100,1.63,RU,1626851505
Wagar,16.1525,36.2032,80.89,69,100,18.81,SD,1626851505
Gannan,47.9147,123.5031,89.64,57,7,5.28,CN,1626851506
Ternate,0.8,127.4,83.79,72,44,10.2,ID,1626851506
Quatre Cocos,-20.2078,57.7625,76.08,65,0,18.14,MU,1626851507
Caramay,10.1815,119.236,87.62,61,100,10.85,PH,1626851507
Katherine,-14.4667,132.2667,88.12,12,83,10.36,AU,1626851507
Ponta do Sol,32.6667,-17.1,70.43,78,0,2.89,PT,1626851508
San Policarpo,12.1791,125.5072,88.11,63,100,13.11,PH,1626851508
Hong Kong,22.2855,114.1577,84.38,89,100,1.01,HK,1626851508
Balod,20.73,81.2047,77.0,86,100,12.21,IN,1626851509
De-Kastri,51.4667,140.7833,63.55,89,100,8.75,RU,1626851509
Soure,-0.7167,-48.5233,77.59,84,7,9.69,BR,1626851509
Vardø,70.3705,31.1107,46.6,81,75,13.8,NO,1626851510
Verkhoshizhem'ye,58.011,49.1038,73.65,43,2,7.07,RU,1626851510
Manado,1.487,124.8455,77.77,88,40,2.3,ID,1626851511
Evensk,61.95,159.2333,52.43,84,100,5.1,RU,1626851511
Zhangjiakou Shi Xuanhua Qu,40.6103,115.0447,80.56,61,100,14.07,CN,1626851511
Zyryanovsk,49.7386,84.2719,82.58,36,100,3.4,KZ,1626851512
Petropavlovsk-Kamchatskiy,53.0452,158.6483,73.99,64,20,6.71,RU,1626851512
Payson,40.0444,-111.7321,78.51,60,1,0.0,US,1626851513
Richards Bay,-28.783,32.0377,64.6,66,60,14.65,ZA,1626851513
Marawi,7.9986,124.2928,82.06,57,100,8.1,PH,1626851513
Klyuchi,52.2667,79.1667,79.39,38,89,12.17,RU,1626851514
Diffa,13.3154,12.6113,85.44,54,22,12.75,NE,1626851514
Opuwo,-18.0607,13.84,63.27,32,0,5.1,NA,1626851514
Soyo,-6.1349,12.3689,72.3,79,8,9.78,AO,1626851515
Mitsamiouli,-11.3847,43.2844,79.07,70,0,8.52,KM,1626851515
Xuzhou,34.1805,117.1571,87.22,63,100,11.39,CN,1626851516
Caluquembe,-13.7833,14.6833,58.08,44,0,3.98,AO,1626851516
Dingle,10.9995,122.6711,84.79,72,100,15.57,PH,1626851516
Nara,34.6851,135.8049,94.91,36,71,10.2,JP,1626851517
Mandera,3.9366,41.867,84.85,44,59,22.1,KE,1626851517
Port Lincoln,-34.7333,135.8667,52.75,63,100,14.79,AU,1626851518
Tiarei,-17.5333,-149.3333,75.22,80,24,21.94,PF,1626851518
Kendari,-3.945,122.4989,75.07,95,100,2.62,ID,1626851518
Turukhansk,65.8167,87.9833,67.6,43,0,5.28,RU,1626851519
Carutapera,-1.195,-46.02,75.13,92,66,5.57,BR,1626851519
Bama,11.5221,13.6856,81.19,66,62,11.88,NG,1626851519
Acaraú,-2.8856,-40.12,77.77,81,2,16.91,BR,1626851520
Hokitika,-42.7167,170.9667,49.03,87,100,11.34,NZ,1626851521
Avera,33.194,-82.5271,73.71,98,100,6.06,US,1626851521
Chicama,-7.8447,-79.1469,63.9,86,8,3.29,PE,1626851521
Mogadishu,2.0371,45.3438,78.69,81,100,21.18,SO,1626851522
Alyangula,-13.8483,136.4192,76.59,55,83,14.32,AU,1626851522
Rakkestad,59.4251,11.3454,63.12,45,15,6.82,NO,1626851523
Conceição do Araguaia,-8.2578,-49.2647,69.78,41,0,3.49,BR,1626851523
Ruidoso,33.3317,-105.673,67.5,81,75,8.05,US,1626851523
Mikhaylovka,50.06,43.2379,89.13,39,0,5.73,RU,1626851524
Zigong,29.3416,104.7769,88.7,65,95,3.83,CN,1626851235
Le Mars,42.7942,-96.1656,67.82,100,1,0.0,US,1626851524
Seredka,58.1584,28.1858,62.35,56,0,12.48,RU,1626851525
Padang,-0.9492,100.3543,89.65,63,59,5.73,ID,1626851257
Egvekinot,66.3167,-179.1667,42.21,72,93,9.69,RU,1626851525
Saint-Avertin,47.3636,0.7399,70.97,72,2,8.05,FR,1626851526
Saint-Leu,-21.15,55.2833,76.06,66,17,4.29,RE,1626851526
Jiménez,28.3333,-105.4,75.36,55,0,2.51,MX,1626851526
Rudnogorsk,57.2639,103.7519,82.06,30,95,4.56,RU,1626851527
Grand Gaube,-20.0064,57.6608,76.37,59,9,7.0,MU,1626851527
Mehrān,33.1222,46.1646,114.31,9,0,7.74,IR,1626851528
Bathsheba,13.2167,-59.5167,81.21,78,40,19.57,BB,1626851528
El Alto,-4.2714,-81.2147,62.91,89,16,13.33,PE,1626851528
Muroto-misakicho,33.2833,134.15,80.01,82,81,13.49,JP,1626851529
Guerrero Negro,27.9769,-114.0611,69.42,86,100,14.41,MX,1626851529
Taoudenni,22.6783,-3.9836,102.0,9,95,13.2,ML,1626851530
Itupiranga,-5.1347,-49.3267,71.92,79,21,0.67,BR,1626851530
Dzhebariki-Khaya,62.2167,135.8,68.27,91,100,8.79,RU,1626851530
Sioux Lookout,50.1001,-91.917,53.6,62,67,4.05,CA,1626851531
Muzaffargarh,30.0754,71.1921,89.62,46,0,5.03,PK,1626851531
Meadow Lake,34.8014,-106.5436,72.68,66,100,4.97,US,1626851532
Havelock,34.8791,-76.9013,78.75,94,100,4.36,US,1626851532
Silla,39.3667,-0.4167,81.03,76,20,1.99,ES,1626851388
Kupang,-10.1667,123.5833,88.38,37,20,18.41,ID,1626851533
Bonnyville,54.2668,-110.735,58.8,91,70,5.12,CA,1626851461
Ningxiang,37.34,111.2052,72.3,78,79,9.84,CN,1626851531
Moose Factory,51.2585,-80.6094,47.77,77,2,2.91,CA,1626851534
Les Cayes,18.2,-73.75,78.91,86,91,6.89,HT,1626851534
Ust'-Ishim,57.6935,71.1665,79.7,43,45,7.94,RU,1626851534
Srednekolymsk,67.45,153.6833,66.18,62,78,13.71,RU,1626851535
Nezhinka,51.7676,55.3694,89.76,40,0,8.95,RU,1626851535
Suba,10.8438,121.0102,84.25,76,100,17.34,PH,1626851536
Jiaocheng,24.6774,116.1389,86.85,74,100,0.89,CN,1626851536
Hazorasp,41.3194,61.0742,93.04,13,6,13.76,UZ,1626851536
Cabedelo,-6.9811,-34.8339,70.47,86,75,11.41,BR,1626851537
Gambēla,8.25,34.5833,72.63,86,100,1.68,ET,1626851537
Bölcske,46.741,18.9674,70.9,57,0,9.98,HU,1626851538
São José da Coroa Grande,-8.8978,-35.1478,73.2,88,54,10.2,BR,1626851445
Matamoros,25.5333,-103.25,76.1,58,10,11.07,MX,1626851538
Ilulissat,69.2167,-51.1,44.62,70,40,2.3,GL,1626851539
Cam Ranh,11.9214,109.1591,94.96,49,40,8.05,VN,1626851539
Stromness,58.965,-3.296,55.65,89,100,3.18,GB,1626851539
Naze,28.3667,129.4833,77.72,90,100,31.5,JP,1626851540
