City,Lat,Lng,Max Temp,Humidity,Cloudiness,Wind Speed,Country,Date
Sayyan,15.1718,44.3244,62.1,70,75,0.67,YE,1627169499
Lakes Entrance,-37.8811,147.981,51.19,54,67,16.08,AU,1627169504
Yellowknife,62.456,-114.3525,58.32,44,75,1.99,CA,1627169414
Dikson,73.5069,80.5464,37.6,96,94,12.17,RU,1627169487
Rikitea,-23.1203,-134.9692,69.46,55,0,1.25,PF,1627169505
Kununurra,-15.7667,128.7333,75.18,38,85,8.05,AU,1627169505
Haines Junction,60.7522,-137.5108,60.75,51,91,8.05,CA,1627169505
Kichmengskiy Gorodok,59.9816,45.7854,44.24,76,38,5.21,RU,1627169506
Cape Town,-33.9258,18.4232,51.28,80,35,2.3,ZA,1627169232
Upernavik,72.7868,-56.1549,39.67,84,82,4.45,GL,1627169506
Mahébourg,-20.4081,57.7,67.24,78,24,11.3,MU,1627169507
Te Anau,-45.4167,167.7167,50.97,71,100,4.9,NZ,1627169507
Carutapera,-1.195,-46.02,75.76,89,96,4.74,BR,1627169508
Fortuna,40.5982,-124.1573,69.85,78,1,18.41,US,1627169221
Sur,22.5667,59.5289,88.29,63,84,8.77,OM,1627169508
Puerto Escondido,15.85,-97.0667,88.63,70,1,11.5,MX,1627169509
Mataura,-46.1927,168.8643,47.48,75,100,3.69,NZ,1627169509
Saryg-Sep,51.5,95.6,61.7,94,100,1.19,RU,1627169509
Hofn,64.2539,-15.2082,52.3,88,50,14.81,IS,1627169510
Sikeston,36.8767,-89.5879,93.09,62,40,6.91,US,1627169507
Butaritari,3.0707,172.7902,83.68,75,70,14.12,KI,1627169490
Homer,59.6425,-151.5483,63.09,82,75,13.8,US,1627169511
Norman Wells,65.282,-126.8329,68.04,37,75,11.5,CA,1627169511
Senneterre,48.3835,-77.2328,61.02,96,100,15.12,CA,1627169511
Chapais,49.7834,-74.8492,73.18,49,100,12.35,CA,1627169512
Port Lincoln,-34.7333,135.8667,55.99,73,67,20.4,AU,1627169512
Kloulklubed,7.0419,134.2556,86.5,73,100,10.92,PW,1627169513
Natal,-5.795,-35.2094,77.22,73,0,9.22,BR,1627169450
Punta Arenas,-53.15,-70.9167,37.51,87,75,11.5,CL,1627169422
Irbeyskoye,55.6428,95.4522,64.54,72,3,7.54,RU,1627169514
Busselton,-33.65,115.3333,57.09,70,99,15.39,AU,1627169514
Barrow,71.2906,-156.7887,42.82,81,90,6.91,US,1627169514
Bonfim,3.0833,-59.95,81.32,68,97,5.41,BR,1627169515
Ushuaia,-54.8,-68.3,37.06,87,40,4.61,AR,1627169457
Kemin,42.7846,75.6892,71.96,27,0,5.93,KG,1627169515
Nikolskoye,59.7035,30.7861,59.81,58,49,4.09,RU,1627169516
Cururupu,-1.8283,-44.8683,74.46,91,84,3.0,BR,1627169516
Tilichiki,60.4667,166.1,60.37,74,100,6.02,RU,1627169516
Provideniya,64.3833,-173.3,47.71,98,100,13.04,RU,1627169517
Turukhansk,65.8167,87.9833,69.12,61,1,14.52,RU,1627169517
Walvis Bay,-22.9575,14.5053,59.95,11,4,5.75,NA,1627169517
Port Elizabeth,-33.918,25.5701,46.69,87,0,5.75,ZA,1627169518
Temuco,-38.7333,-72.6,49.77,80,100,9.82,CL,1627169518
Yar-Sale,66.8333,70.8333,52.39,89,1,8.84,RU,1627169519
Lata,40.1629,-8.3327,62.82,97,59,1.21,PT,1627169519
San Jerónimo,-11.9472,-75.2829,49.19,68,26,6.44,PE,1627169519
Saint George,37.1041,-113.5841,89.33,52,40,5.99,US,1627169292
Souillac,-20.5167,57.5167,67.35,81,18,9.33,MU,1627169520
Avarua,-21.2078,-159.775,78.85,65,20,9.22,CK,1627169463
Plouzané,48.3833,-4.6167,59.18,97,90,8.05,FR,1627169520
Torbay,47.6666,-52.7314,60.28,87,40,13.8,CA,1627169521
Panama City,8.9936,-79.5197,81.37,86,75,2.3,PA,1627169252
Atar,20.5169,-13.0499,93.9,20,75,6.11,MR,1627169521
Tuktoyaktuk,69.4541,-133.0374,66.2,45,75,14.97,CA,1627169509
Hithadhoo,-0.6,73.0833,81.57,78,54,10.36,MV,1627169522
Byron Bay,-28.65,153.6167,64.71,42,0,11.83,AU,1627169522
Pisco,-13.7,-76.2167,62.65,77,20,16.11,PE,1627169297
Lagoa,39.05,-27.9833,69.33,89,40,14.52,PT,1627169505
Quibdó,5.6947,-76.6611,72.32,99,100,1.97,CO,1627169404
Nhamundá,-2.1861,-56.7131,80.15,60,87,2.93,BR,1627169524
Blagoyevo,63.3667,47.9167,43.99,96,96,5.61,RU,1627169524
George Town,5.4112,100.3354,82.89,90,20,1.14,MY,1627169524
Cabo San Lucas,22.8909,-109.9124,95.5,61,20,12.66,MX,1627169514
Arraial do Cabo,-22.9661,-42.0278,70.12,76,0,23.8,BR,1627169525
Atuona,-9.8,-139.0333,78.37,72,37,18.12,PF,1627169525
Hilo,19.7297,-155.09,80.62,89,90,4.61,US,1627169526
Bluff,-46.6,168.3333,47.8,66,100,9.08,NZ,1627169526
Podyuga,61.095,40.8647,51.3,65,100,5.28,RU,1627169526
Tateyama,34.9833,139.8667,85.01,69,0,8.95,JP,1627169527
Albany,42.6001,-73.9662,76.17,62,91,1.99,US,1627169527
Matamoros,25.5333,-103.25,95.11,23,40,0.0,MX,1627169488
Lebu,-37.6167,-73.65,51.04,83,99,21.61,CL,1627169528
Verkhnevilyuysk,63.4453,120.3167,67.86,49,61,8.41,RU,1627169528
Carnarvon,-24.8667,113.6333,59.07,67,100,8.05,AU,1627169528
Vila Velha,-20.3297,-40.2925,66.15,82,0,0.0,BR,1627169529
Englehart,47.8169,-79.8664,64.42,100,90,10.36,CA,1627169529
Veinte de Noviembre,14.9833,-92.25,83.89,90,100,1.9,MX,1627169530
Puerto del Rosario,28.5004,-13.8627,73.15,73,7,21.85,ES,1627169530
Mar del Plata,-38.0023,-57.5575,51.13,62,90,18.99,AR,1627169300
Narsaq,60.9167,-46.05,50.22,92,69,4.0,GL,1627169531
Monte Patria,-30.6919,-70.9467,51.53,72,47,2.15,CL,1627169531
Port Alfred,-33.5906,26.891,53.31,61,0,13.49,ZA,1627169482
Chui,-33.6971,-53.4616,55.99,85,98,7.14,UY,1627169532
Aksarka,66.5606,67.7975,56.61,71,79,13.58,RU,1627169532
Tessalit,20.1986,1.0114,88.0,47,47,19.51,ML,1627169532
Hamilton,39.1834,-84.5333,86.34,65,1,1.01,US,1627169267
Tsaratanana,-16.7833,47.65,61.05,80,5,9.37,MG,1627169533
Thompson,55.7435,-97.8558,60.96,94,90,8.05,CA,1627169519
Hermanus,-34.4187,19.2345,50.9,55,25,5.01,ZA,1627169534
Raudeberg,61.9875,5.1352,58.87,90,94,2.28,NO,1627169519
Maniitsoq,65.4167,-52.9,40.42,80,80,0.56,GL,1627169534
Tuatapere,-46.1333,167.6833,47.82,73,100,6.06,NZ,1627169535
Altay,47.8667,88.1167,69.21,48,0,1.9,CN,1627169535
Vaini,-21.2,-175.2,82.56,83,20,9.22,TO,1627169457
Kanniyākumāri,8.0833,77.5667,78.67,84,98,19.64,IN,1627169536
Lavrentiya,65.5833,-171.0,44.71,98,100,10.83,RU,1627169483
Lorengau,-2.0226,147.2712,83.89,69,42,5.28,PG,1627169536
Hong Kong,22.2855,114.1577,83.32,91,90,1.99,HK,1627169360
Kapaa,22.0752,-159.319,84.18,82,75,1.01,US,1627169537
Hobart,-42.8794,147.3294,46.26,65,40,4.0,AU,1627169415
New Norfolk,-42.7826,147.0587,45.91,61,74,11.27,AU,1627169537
Castro,-24.7911,-50.0119,53.58,74,0,2.08,BR,1627169538
Abalak,58.1286,68.5944,57.74,98,100,3.13,RU,1627169538
Royan,45.6285,-1.0281,66.18,85,70,15.48,FR,1627169539
Pokhara,28.2333,83.9833,73.9,97,100,0.74,NP,1627169539
Pemangkat,1.1667,108.9667,80.24,86,51,7.94,ID,1627169539
Praia,14.9215,-23.5087,75.74,69,75,8.05,CV,1627169466
Port Hardy,50.6996,-127.4199,66.38,82,75,6.91,CA,1627169414
Labuhan,-6.8844,112.2051,75.13,81,2,6.62,ID,1627169540
Puerto Carreño,6.189,-67.4859,77.22,87,100,4.21,CO,1627169352
Bredasdorp,-34.5322,20.0403,38.52,93,31,3.44,ZA,1627169541
Fort Nelson,58.8053,-122.7002,71.19,40,75,8.05,CA,1627169541
Cap Malheureux,-19.9842,57.6142,67.46,79,3,4.0,MU,1627169542
Tacna,-18.0056,-70.2483,54.5,85,0,2.19,PE,1627169542
Mandera,3.9366,41.867,76.87,54,95,20.69,KE,1627169542
Charter Township of Clinton,42.587,-82.9199,86.32,77,90,3.0,US,1627169543
Bambous Virieux,-20.3428,57.7575,67.21,78,28,11.83,MU,1627169543
Tasiilaq,65.6145,-37.6368,42.96,98,100,3.83,GL,1627169544
Churapcha,62.0025,132.4325,71.1,62,43,11.16,RU,1627169544
Tinos,37.5375,25.1634,77.76,53,0,23.02,GR,1627169544
Quatre Cocos,-20.2078,57.7625,67.08,79,26,12.53,MU,1627169545
Mackay,-21.15,149.2,73.04,42,0,1.14,AU,1627169482
East London,-33.0153,27.9116,52.81,69,0,12.37,ZA,1627169546
Waipawa,-41.4122,175.5153,55.02,63,1,10.4,NZ,1627169546
Tiksi,71.6872,128.8694,43.38,77,43,5.32,RU,1627169546
Isangel,-19.55,169.2667,84.31,70,75,0.0,VU,1627169547
Guerrero Negro,27.9769,-114.0611,74.75,69,100,14.76,MX,1627169526
Jamestown,42.097,-79.2353,73.08,87,90,5.01,US,1627169547
Tupik,54.4253,119.9327,58.21,97,100,5.06,RU,1627169548
Terrace Bay,48.7834,-87.1,64.02,82,52,2.15,CA,1627169548
Plátanos,37.6667,21.6167,77.68,62,0,3.91,GR,1627169549
Bathsheba,13.2167,-59.5167,81.21,83,40,11.5,BB,1627169549
Itaqui,-29.1253,-56.5531,69.1,60,21,9.71,BR,1627169550
Cherskiy,68.75,161.3,53.46,60,84,4.99,RU,1627169550
Bara Uchāna,29.4667,76.1667,85.46,72,54,5.79,IN,1627169550
Jinchang,38.4953,102.1739,70.52,71,100,8.5,CN,1627169551
Caluquembe,-13.7833,14.6833,52.88,22,0,0.29,AO,1627169551
Vavoua,7.3819,-6.4778,72.39,83,100,4.43,CI,1627169551
Xiaoweizhai,26.1903,107.5125,71.98,93,100,3.96,CN,1627169552
Faanui,-16.4833,-151.75,78.62,66,41,11.23,PF,1627169552
Poya,-21.35,165.15,81.14,46,0,3.85,NC,1627169553
Sørland,67.667,12.6934,52.32,95,100,14.34,NO,1627169553
Taoudenni,22.6783,-3.9836,99.43,9,4,11.83,ML,1627169553
Lebedinyy,58.5167,125.5167,58.98,90,100,4.23,RU,1627169554
Lázaro Cárdenas,17.9583,-102.2,84.81,77,54,9.06,MX,1627169293
Le Port,-20.9373,55.2919,69.76,76,57,6.91,RE,1627169555
Ust-Maya,60.4167,134.5333,60.98,97,100,8.32,RU,1627169555
Melilla,35.2937,-2.9383,89.98,20,0,13.8,ES,1627169556
Bara,10.3744,10.7288,71.98,95,53,6.6,NG,1627169556
Bud,39.447,-86.1758,84.29,86,42,8.23,US,1627169557
Fairbanks,64.8378,-147.7164,66.16,64,90,7.0,US,1627169557
Ratnagiri,16.9833,73.3,79.47,87,100,15.39,IN,1627169557
Banda Aceh,5.5577,95.3222,80.02,73,100,9.71,ID,1627169558
Mettur,11.8,77.8,75.79,86,88,1.79,IN,1627169559
Mayo,38.8876,-76.5119,82.51,66,90,8.01,US,1627169559
Erdenet,49.0333,104.0833,59.31,78,99,3.2,MN,1627169559
Loei,17.4167,101.5,67.37,99,100,4.92,TH,1627169560
Thunder Bay,48.4001,-89.3168,85.98,26,20,13.8,CA,1627169435
Rūdbār,30.15,62.6,87.71,15,10,5.21,AF,1627169560
Kuznechnoye,61.12,29.8686,59.0,68,100,7.27,RU,1627169561
Eyl,7.9803,49.8164,80.26,55,87,26.22,SO,1627169561
Scarborough,54.2797,-0.4044,60.62,86,100,7.49,GB,1627169519
Shambu,9.5667,37.1,51.44,98,100,3.38,ET,1627169562
Sitka,57.0531,-135.33,57.09,77,75,6.91,US,1627169562
Izumo,35.3667,132.7667,84.15,74,0,3.44,JP,1627169562
Bilibino,68.0546,166.4372,57.78,51,51,3.36,RU,1627169563
Pochutla,15.7432,-96.4661,91.22,73,99,6.06,MX,1627169563
Zambezi,-13.5432,23.1047,60.04,55,20,10.27,ZM,1627169563
Lüderitz,-26.6481,15.1594,64.49,22,46,7.65,NA,1627169564
Paamiut,61.994,-49.6678,41.27,85,89,13.02,GL,1627169564
Cape Canaveral,28.4058,-80.6048,87.06,76,1,9.22,US,1627169565
Alofi,-19.0595,-169.9187,82.29,74,33,4.61,NU,1627169565
Kavieng,-2.5744,150.7967,84.16,71,16,8.84,PG,1627169566
Avera,33.194,-82.5271,88.72,57,37,6.98,US,1627169566
Sakakah,29.9697,40.2064,85.57,29,1,7.27,SA,1627169566
Saint-Leu,-21.15,55.2833,68.83,77,55,12.53,RE,1627169567
Chimbarongo,-34.7,-71.05,50.72,80,92,1.3,CL,1627169567
Ancud,-41.8697,-73.8203,40.53,81,100,5.57,CL,1627169568
Caravelas,-17.7125,-39.2481,71.83,60,85,8.39,BR,1627169568
Coyhaique,-45.5752,-72.0662,37.35,87,0,4.61,CL,1627169568
Iqaluit,63.7506,-68.5145,46.13,87,90,16.11,CA,1627169569
Marsaxlokk,35.8419,14.5431,79.09,64,0,5.75,MT,1627169569
Touros,-5.1989,-35.4608,76.1,78,10,16.55,BR,1627169570
Kaitangata,-46.2817,169.8464,45.93,51,86,5.48,NZ,1627169478
Black Diamond,47.3087,-122.0032,86.31,45,0,5.01,US,1627169570
Kathu,7.9178,98.3332,84.02,78,99,13.71,TH,1627169571
Geneva,41.8875,-88.3054,89.8,72,75,12.66,US,1627169492
Margate,51.3813,1.3862,64.69,87,88,2.82,GB,1627169571
Rusape,-18.5278,32.1284,39.67,88,1,6.4,ZW,1627169572
Launceston,-41.45,147.1667,44.8,84,41,3.0,AU,1627169572
Pusad,19.9,77.5833,75.7,88,100,16.28,IN,1627169572
Ribeira Grande,38.5167,-28.7,71.02,92,47,8.95,PT,1627169573
Portland,45.5234,-122.6762,94.96,37,1,4.0,US,1627168918
Kisoro,-1.2854,29.685,59.0,62,83,3.56,UG,1627169573
Mandalgovi,45.7625,106.2708,65.44,67,95,1.68,MN,1627169574
Forsytheganj,52.6333,29.7333,65.79,71,94,0.49,BY,1627169574
Río Tercero,-32.173,-64.1141,57.79,63,0,6.24,AR,1627169575
Khatanga,71.9667,102.5,56.61,54,70,19.98,RU,1627169575
Tooele,40.5308,-112.2983,97.95,18,1,12.66,US,1627169575
Pangkalanbuun,-2.6833,111.6167,76.59,84,37,3.78,ID,1627169576
Zverinogolovskoye,54.4586,64.8542,63.12,95,100,11.63,RU,1627169576
Katsuura,35.1333,140.3,85.1,72,3,10.47,JP,1627169577
Praia da Vitória,38.7333,-27.0667,73.65,83,40,15.19,PT,1627169540
Dalby,-27.1833,151.2667,54.3,48,14,20.69,AU,1627169577
Bangkal,6.0667,121.0667,82.71,83,89,7.94,PH,1627169577
Mikhaylovka,50.06,43.2379,64.85,70,83,4.65,RU,1627169578
Camaná,-16.6228,-72.7111,60.44,84,66,4.97,PE,1627169578
Qasigiannguit,68.8193,-51.1922,44.85,92,98,7.11,GL,1627169579
Saint-Philippe,-21.3585,55.7679,69.35,81,30,5.06,RE,1627169579
Seoni Mālwa,22.45,77.4667,75.25,96,100,14.85,IN,1627169580
Krasnyye Chetai,55.6887,46.1386,46.54,79,20,3.02,RU,1627169581
Ak-Dovurak,51.1833,90.6,60.37,94,100,3.65,RU,1627169581
Bogorodskoye,56.55,37.8833,59.79,60,56,3.36,RU,1627169582
Porto-Novo,6.4965,2.6036,78.62,79,95,7.47,BJ,1627169582
Cidreira,-30.1811,-50.2056,61.29,77,19,8.55,BR,1627169582
Husavik,66.0449,-17.3389,57.11,94,83,5.53,IS,1627169583
Şırnak,37.5228,42.4594,71.06,28,0,4.97,TR,1627169583
Puerto Ayora,-0.7393,-90.3518,73.54,83,19,7.0,EC,1627169584
Chokurdakh,70.6333,147.9167,47.12,60,83,14.43,RU,1627169584
Aguada de Pasajeros,22.385,-80.8508,87.94,72,99,4.88,CU,1627169584
Hailey,43.5196,-114.3153,90.9,20,1,9.22,US,1627169585
Dryden,49.7833,-92.7503,79.09,36,75,19.57,CA,1627169585
Kharp,66.8014,65.8081,52.48,89,100,5.19,RU,1627169585
Saint Paul Harbor,57.79,-152.4072,58.51,82,75,6.91,US,1627169586
Sabha,27.0377,14.4283,80.37,26,0,8.84,LY,1627169586
Makhinjauri,41.6739,41.694,69.66,88,75,10.36,GE,1627169587
Ponta do Sol,32.6667,-17.1,73.71,77,0,6.08,PT,1627169481
Codrington,-38.2667,141.9667,46.49,78,91,16.91,AU,1627169520
Dandong,40.1292,124.3947,81.27,69,11,2.26,CN,1627169587
Bahía Blanca,-38.7196,-62.2724,49.59,55,100,8.5,AR,1627169319
Illapel,-31.6308,-71.1653,49.66,83,53,2.3,CL,1627169588
Airai,-8.9266,125.4092,68.67,28,5,2.51,TL,1627169588
Gondanglegi,-7.7479,112.0132,74.61,81,2,11.86,ID,1627169589
Bethanien,-26.502,17.1583,47.07,18,3,6.98,NA,1627169589
Richards Bay,-28.783,32.0377,52.81,77,20,4.72,ZA,1627169590
Rocha,-34.4833,-54.3333,53.46,91,100,7.0,UY,1627169590
Lompoc,34.6391,-120.4579,90.01,69,20,5.99,US,1627169400
Mossamedes,-15.1961,12.1522,66.36,72,0,7.05,AO,1627169591
Camacha,33.0833,-16.3333,68.76,78,40,9.22,PT,1627169591
Yankton,42.8711,-97.3973,93.45,26,1,11.5,US,1627169591
Nichinan,31.6,131.3667,82.08,84,100,13.22,JP,1627169592
Jaipur,26.9167,75.8167,83.52,84,75,2.3,IN,1627169496
Sisimiut,66.9395,-53.6735,40.64,91,100,5.93,GL,1627169593
Zhuhai,22.2769,113.5678,83.05,89,40,1.14,CN,1627169593
Mizdah,31.4451,12.9801,73.71,46,0,9.35,LY,1627169593
Bethel,41.3712,-73.414,76.73,68,63,6.93,US,1627169594
Tashtyp,52.7939,89.8983,63.36,98,100,3.6,RU,1627169594
Saldanha,-33.0117,17.9442,48.25,56,57,11.54,ZA,1627169595
Tartous,34.889,35.8866,77.29,81,30,6.31,SY,1627169595
Baijiantan,45.6333,85.1833,85.24,24,1,5.75,CN,1627169516
Constitución,-35.3333,-72.4167,51.82,89,99,16.58,CL,1627169596
Careiro da Várzea,-3.2003,-59.8119,84.81,61,89,2.55,BR,1627169596
Kushiro,42.975,144.3747,70.75,100,75,4.61,JP,1627169597
Mayor Pablo Lagerenza,-19.9309,-60.7718,80.8,32,0,7.23,PY,1627169597
Marawi,7.9986,124.2928,74.64,70,63,7.58,PH,1627169597
Porto Tolle,44.9497,12.3245,78.03,77,49,5.44,IT,1627169598
Nianzishan,47.5167,122.8833,73.65,77,50,1.43,CN,1627169598
Almonte,37.2647,-6.5167,77.61,38,2,12.46,ES,1627169598
Palu,-0.8917,119.8707,79.81,87,83,2.46,ID,1627169599
Lima,-12.0432,-77.0282,61.14,77,90,10.36,PE,1627169520
Berlevåg,70.8578,29.0864,45.12,88,100,26.31,NO,1627169599
Ahipara,-35.1667,173.1667,59.77,76,100,15.08,NZ,1627169470
Bengkulu,-3.8004,102.2655,75.99,82,22,3.62,ID,1627169600
Frankfort,-27.2667,28.4833,33.31,89,0,4.7,ZA,1627169600
El Tigre,8.8875,-64.2454,74.84,89,100,2.55,VE,1627169601
Jasper,37.2001,-94.3502,93.97,55,1,1.01,US,1627169415
Belaya Gora,68.5333,146.4167,56.61,49,94,16.62,RU,1627169601
San Rafael,-34.6177,-68.3301,49.26,46,31,6.02,AR,1627169438
Coquimbo,-29.9533,-71.3436,53.33,87,20,8.05,CL,1627169538
Parksville,49.3163,-124.3195,85.73,51,6,2.3,CA,1627169414
Cap-aux-Meules,47.3821,-61.8597,59.05,67,20,5.75,CA,1627169602
Oytal,42.9057,73.2697,75.47,27,0,3.87,KZ,1627169603
Hasaki,35.7333,140.8333,84.29,77,0,10.96,JP,1627169603
Changji,44.0167,87.3167,81.39,28,0,6.71,CN,1627169604
Meadow Lake,34.8014,-106.5436,86.72,42,92,13.94,US,1627169604
Whitehorse,60.7161,-135.0538,65.17,45,75,5.99,CA,1627169604
Qaanaaq,77.484,-69.3632,40.12,68,99,2.91,GL,1627169605
Esperance,-33.8667,121.9,49.84,75,29,16.78,AU,1627169494
Nioro,13.35,-15.75,77.67,71,73,7.02,GM,1627169513
Hals,56.9961,10.3081,64.0,89,3,11.74,DK,1627169605
Mount Gambier,-37.8333,140.7667,42.71,93,75,6.91,AU,1627169491
Ban Nahin,18.2418,104.2122,74.39,100,100,1.66,LA,1627169568
Daytona Beach,29.2108,-81.0228,85.24,69,40,11.5,US,1627169606
Inhambane,-23.865,35.3833,64.35,66,93,12.24,MZ,1627169607
La Unión,-5.4,-80.75,68.47,70,0,14.88,PE,1627169607
Kerrville,30.0474,-99.1403,92.55,49,1,1.01,US,1627169607
Ferme-Neuve,46.7001,-75.4493,73.18,55,100,9.98,CA,1627169608
Nishihara,26.1842,127.7558,82.06,95,90,14.97,JP,1627169608
Samarai,-10.6167,150.6667,79.84,84,96,15.48,PG,1627169609
Dāmghān,36.1683,54.348,80.94,46,0,1.05,IR,1627169609
Kathmandu,27.7167,85.3167,73.62,94,75,3.44,NP,1627169360
Kunjah,32.5285,73.9737,86.04,53,68,3.33,PK,1627169610
Tianmen,30.6516,113.1603,79.41,87,14,9.66,CN,1627169610
Harper,4.375,-7.7169,75.16,72,99,5.21,LR,1627169485
Laas,46.6166,10.7002,68.88,94,46,2.89,IT,1627169611
Longyearbyen,78.2186,15.6401,42.64,87,75,17.27,SJ,1627169611
San Cristobal,7.7669,-72.225,77.18,99,100,3.58,VE,1627169612
Poum,-20.2333,164.0167,72.9,75,6,2.21,NC,1627169613
Havre-St-Pierre,50.2334,-63.5986,61.16,72,1,5.75,CA,1627169613
Petropavlovsk-Kamchatskiy,53.0452,158.6483,63.19,82,20,4.47,RU,1627169613
Saint Simons,31.1352,-81.3901,84.24,65,20,10.36,US,1627169614
Rabo de Peixe,37.8,-25.5833,71.11,88,40,4.61,PT,1627169614
Huarmey,-10.0681,-78.1522,64.17,83,20,6.17,PE,1627169615
Port Hedland,-20.3167,118.5667,59.05,58,46,5.75,AU,1627169488
Kiryat Gat,31.61,34.7642,79.48,84,3,2.08,IL,1627169500
Brae,60.3964,-1.353,55.31,88,34,3.04,GB,1627169615
Vilyuysk,63.7553,121.6247,67.82,51,34,10.22,RU,1627169616
Seagoville,32.6396,-96.5383,100.6,51,1,10.36,US,1627169616
Funadhoo,6.15,73.2667,81.57,75,98,8.59,MV,1627169616
Tongliao,43.6125,122.2653,76.55,81,100,9.86,CN,1627169617
Vao,-22.6667,167.4833,71.65,83,3,7.92,NC,1627169617
Yulara,-25.2406,130.9889,44.44,65,40,5.75,AU,1627169617
Serik,36.9169,31.0989,86.67,53,64,2.04,TR,1627169618
Nokaneng,-19.6667,22.2667,53.31,54,0,12.93,BW,1627169618
Bintulu,3.1667,113.0333,77.41,94,20,4.61,MY,1627169619
Kintampo,8.0563,-1.7306,74.57,71,100,4.68,GH,1627169619
Flinders,-34.5833,150.8552,53.38,53,24,18.01,AU,1627169619
Geraldton,-28.7667,114.6,54.01,87,90,10.36,AU,1627169467
Macon,39.8667,-88.9668,89.8,66,1,14.97,US,1627169620
Mount Isa,-20.7333,139.5,60.57,31,22,10.36,AU,1627169471
Dingle,10.9995,122.6711,82.26,80,86,16.13,PH,1627169620
Nago,26.5881,127.9761,82.83,86,96,14.36,JP,1627169621
Tucuruí,-3.7661,-49.6725,77.11,54,48,1.83,BR,1627169621
Saint-Augustin,51.226,-58.6502,53.04,79,3,5.97,CA,1627169622
Gravdal,68.1214,13.5031,52.12,97,100,11.23,NO,1627169622
Ponoka,52.6768,-113.5815,78.08,39,40,6.87,CA,1627169414
Aldan,58.6031,125.3894,59.63,91,100,2.66,RU,1627169623
Vermillion,42.7794,-96.9292,93.36,31,32,5.53,US,1627169623
Omboué,-1.5746,9.2618,73.65,74,83,5.64,GA,1627169624
Severo-Yeniseyskiy,60.3725,93.0408,67.53,58,1,2.82,RU,1627169624
Phuket,8.0,98.25,84.42,74,20,11.5,TH,1627169624
Russell,32.3502,-85.1999,90.55,66,1,3.44,US,1627169415
Vila Franca do Campo,37.7167,-25.4333,72.01,92,32,5.79,PT,1627169625
Barra do Corda,-5.5,-45.25,77.95,49,56,3.13,BR,1627169625
Diego de Almagro,-26.3667,-70.05,55.06,48,0,2.19,CL,1627169626
Silifke,36.3778,33.9344,80.96,46,0,6.87,TR,1627169626
Qui Nhon,13.7667,109.2333,82.62,68,99,18.05,VN,1627169626
Beisfjord,68.3751,17.5988,54.25,98,100,4.92,NO,1627169627
São Filipe,14.8961,-24.4956,73.99,73,48,8.32,CV,1627169627
Ubari,26.5921,12.7805,79.75,22,0,7.09,LY,1627169628
Kulim,5.365,100.5618,82.49,86,88,3.2,MY,1627169628
Salinas,36.6777,-121.6555,91.42,60,1,17.27,US,1627169628
Prado,-17.3411,-39.2208,71.29,64,78,9.1,BR,1627169629
Highland,34.1283,-117.2086,98.71,37,75,1.99,US,1627169629
Yomou,7.5603,-9.2653,67.6,100,97,2.77,GN,1627169630
Cayenne,4.9333,-52.3333,81.09,82,0,1.01,GF,1627169630
Arrondissement de Bourg-en-Bresse,46.1667,5.1667,67.82,94,57,0.76,FR,1627169630
Pevek,69.7008,170.3133,37.42,88,84,13.06,RU,1627169631
Morón,-34.6534,-58.6198,59.02,95,100,5.01,AR,1627169376
Kadungora,-7.0899,107.8864,68.63,89,27,3.29,ID,1627169631
Kirakira,-10.4544,161.9205,85.32,71,63,8.37,SB,1627169632
Yuci,37.6803,112.7319,73.15,73,0,4.47,CN,1627169632
Presidencia Roque Sáenz Peña,-26.7852,-60.4388,76.5,38,27,8.55,AR,1627169632
Shurugwi,-19.6702,30.0059,37.35,84,2,6.11,ZW,1627169633
Mata,40.683,-7.4592,54.93,92,67,4.09,PT,1627169633
Olafsvik,64.8945,-23.7142,50.16,82,87,10.42,IS,1627169634
Newtownards,54.5924,-5.6909,62.55,81,100,3.44,GB,1627169634
Bam,29.106,58.357,88.61,12,72,12.75,IR,1627169634
Podosinovets,60.2776,47.0659,48.22,65,94,6.82,RU,1627169635
Tura,25.5198,90.2201,75.06,96,98,5.26,IN,1627169635
Tiznit Province,29.5833,-9.5,82.98,41,85,2.51,MA,1627169635
Qinggang,46.6833,126.0833,74.73,84,100,11.77,CN,1627169636
Puerto Madryn,-42.7692,-65.0385,46.94,50,98,15.43,AR,1627169471
Seddon,-37.8068,144.8916,48.09,66,0,19.57,AU,1627169636
Neturhāt,23.4833,84.2667,68.72,89,95,5.21,IN,1627169637
Aykhal,66.0,111.5,70.7,51,0,16.51,RU,1627169637
Vredendal,-31.6683,18.5012,54.66,23,34,11.59,ZA,1627169638
Kwang Binh,17.4833,106.6,79.57,79,96,16.35,VN,1627169638
Gigmoto,13.7796,124.39,84.09,77,74,15.32,PH,1627169639
De Aar,-30.6497,24.0123,36.55,34,0,4.94,ZA,1627169639
Safford,32.834,-109.7076,76.51,100,90,9.22,US,1627169639
Mocuba,-16.8392,36.9856,59.05,95,69,4.88,MZ,1627169640
Ouadda,8.0777,22.4007,67.28,98,97,3.87,CF,1627169640
Isla Mujeres,21.2311,-86.731,84.25,72,78,5.14,MX,1627169403
Gazli,40.1333,63.45,88.14,16,0,12.33,UZ,1627169641
São Domingos do Maranhão,-5.5758,-44.3853,80.01,44,59,2.68,BR,1627169641
Beatrice,40.2681,-96.747,90.0,66,75,3.44,US,1627169642
Pangody,65.85,74.4859,54.12,90,94,5.03,RU,1627169642
Camalú,30.85,-116.0667,73.42,73,100,6.98,MX,1627169642
Coahuayana Viejo,18.7333,-103.6833,92.68,75,49,4.72,MX,1627169643
Deer Lake,49.1667,-57.4316,55.26,82,75,6.91,CA,1627169643
Santiago del Estero,-27.7951,-64.2615,64.8,36,32,7.85,AR,1627169490
Nanortalik,60.1432,-45.2371,43.18,97,100,10.04,GL,1627169644
Farim,12.4839,-15.2217,79.09,97,98,4.68,GW,1627169644
Weihe,32.9952,105.3247,69.12,98,100,1.52,CN,1627169645
Wairoa,-39.0333,177.3667,54.55,74,2,3.0,NZ,1627169645
Saskylakh,71.9167,114.0833,64.36,63,100,5.64,RU,1627169645
Ekhabi,53.5102,142.9671,76.93,75,90,6.85,RU,1627169646
Plácido de Castro,-10.3353,-67.1856,79.59,42,2,2.24,BR,1627169646
Kasama,-10.2129,31.1808,53.33,74,42,7.96,ZM,1627169647
Naze,28.3667,129.4833,79.72,91,100,22.97,JP,1627169647
Kumul,42.8,93.45,86.85,24,20,8.39,CN,1627169647
Amahai,-3.3333,128.9167,77.18,84,100,2.75,ID,1627169648
Vanavara,60.34,102.2797,71.98,59,72,3.29,RU,1627169648
Tsogni,-2.7942,10.0988,68.94,88,47,2.75,GA,1627169648
Shirpur,21.35,74.8833,79.29,82,100,17.67,IN,1627169649
Kupang,-10.1667,123.5833,66.78,55,20,1.14,ID,1627169574
Galveston,29.3669,-94.9669,96.19,75,1,3.0,US,1627169649
Smolenka,52.1352,113.4974,59.07,88,20,4.47,RU,1627169650
Kosonsoy,41.2561,71.5508,73.96,22,0,6.62,UZ,1627169650
Marabu,4.4148,114.0089,78.94,100,20,1.14,MY,1627169650
Dubbo,-32.25,148.6167,46.53,81,90,14.97,AU,1627169512
Mahibadhoo,3.7833,72.9667,82.35,75,98,5.23,MV,1627169577
Revin,49.9404,4.635,62.4,96,46,4.38,FR,1627169651
Nadym,65.5333,72.5167,54.79,93,24,8.99,RU,1627169652
Manzhouli,49.6,117.4333,64.13,70,10,13.2,CN,1627169652
Arys,42.4252,68.795,75.42,22,0,4.0,KZ,1627169652
Sosnovskoye,55.8052,43.167,48.94,68,61,3.51,RU,1627169653
Ngunguru,-35.6167,174.5,62.17,70,87,18.05,NZ,1627169653
Aswān,24.0934,32.907,87.1,26,0,10.36,EG,1627169653
Boromo,11.75,-2.9333,77.63,74,94,6.02,BF,1627169654
Huanan,46.2167,130.5167,81.61,63,94,4.54,CN,1627169654
Zhangye,38.9342,100.4517,72.5,66,100,6.78,CN,1627169655
Kruisfontein,-34.0033,24.7314,46.9,42,5,8.84,ZA,1627169655
Cervo,43.6702,-7.4101,63.97,88,33,7.76,ES,1627169655
Anūppur,23.1,81.6833,75.33,93,99,7.43,IN,1627169656
Alice Springs,-23.7,133.8833,49.55,43,32,1.14,AU,1627169470
Megion,61.0296,76.1136,62.62,94,100,7.56,RU,1627169657
Champerico,14.3,-91.9167,89.94,76,91,4.14,GT,1627169484
Ola,59.5833,151.2833,55.11,95,98,6.33,RU,1627169657
Kemisē,10.7167,39.8667,67.37,81,98,3.94,ET,1627169657
Nhulunbuy,-12.2333,136.7667,75.81,88,44,3.44,AU,1627169658
Mae Sai,20.4335,99.8762,76.44,99,100,0.98,TH,1627169462
Cairns,-16.9167,145.7667,81.07,82,83,10.36,AU,1627169486
Bocas del Toro,9.3333,-82.25,83.07,84,92,12.15,PA,1627169659
Otjimbingwe,-22.35,16.1333,53.85,14,10,7.87,NA,1627169659
Leningradskiy,69.3833,178.4167,37.04,96,100,6.02,RU,1627169659
Manggar,-2.8833,108.2667,82.72,70,7,15.79,ID,1627169660
Los Algarrobos,8.5,-82.4333,81.45,83,75,0.0,PA,1627169660
Chiang Khong,20.2613,100.4046,77.32,98,100,1.14,TH,1627169660
Newton Abbot,50.5286,-3.6119,64.11,94,48,7.72,GB,1627169661
La Sarre,48.8002,-79.1996,59.77,99,100,8.77,CA,1627169406
Haimen,23.1935,116.6142,84.09,78,5,8.43,CN,1627169661
Okhotsk,59.3833,143.3,55.9,94,100,12.53,RU,1627169662
Shiyan,32.6475,110.7781,75.42,86,17,1.16,CN,1627169662
Arica,-18.475,-70.3042,61.03,77,20,6.91,CL,1627169372
Belgaum,15.8667,74.5,69.1,92,98,11.39,IN,1627169663
Tutóia,-2.7619,-42.2744,78.49,79,19,8.43,BR,1627169663
Chaozhou,23.6651,116.6379,84.06,76,30,5.66,CN,1627169664
Sydney,-33.8679,151.2073,55.62,51,0,5.99,AU,1627169650
Dawlatabad,36.4141,64.9053,85.35,13,0,9.48,AF,1627169664
Clyde River,70.4692,-68.5914,34.03,100,90,18.41,CA,1627169664
San Patricio,28.017,-97.5169,96.55,54,0,15.48,US,1627169665
Kidal,18.4411,1.4078,87.62,46,22,1.72,ML,1627169665
Yerbogachën,61.2767,108.0108,71.11,53,88,4.41,RU,1627169666
Gijang,35.2442,129.2139,83.93,79,100,8.79,KR,1627169666
Firminópolis,-16.5819,-50.305,68.2,34,0,4.7,BR,1627169666
Batagay-Alyta,67.8006,130.4114,64.38,58,27,9.51,RU,1627169667
Sri Aman,1.2376,111.4621,73.45,100,70,0.0,MY,1627169667
Wonthaggi,-38.6044,145.5913,47.43,78,97,22.7,AU,1627169667
Kamskoye Ustye,55.2016,49.268,51.8,65,3,8.95,RU,1627169668
Betafo,-19.8333,46.85,52.29,88,98,7.72,MG,1627169668
Rio Grande,-32.035,-52.0986,60.69,76,78,6.44,BR,1627169607
Athol,42.5959,-72.2268,76.66,65,57,4.07,US,1627169669
Charters Towers,-20.1,146.2667,67.64,32,8,15.61,AU,1627169669
Vereshchagino,58.0789,54.6557,42.58,77,69,5.7,RU,1627169670
Kholtoson,50.2981,103.3097,59.47,83,100,1.86,RU,1627169670
Sinnamary,5.3833,-52.95,78.37,85,99,10.2,GF,1627169671
Van,38.4924,43.3831,63.75,45,0,4.61,TR,1627169671
Uberaba,-19.7483,-47.9319,72.18,28,0,4.61,BR,1627169386
Grootfontein,-19.5667,18.1167,40.57,48,0,2.3,NA,1627169672
Spirit River,55.7833,-118.8361,73.92,35,89,12.62,CA,1627169672
Ixtapa,20.7,-105.2,88.23,62,75,11.5,MX,1627169572
Hambantota,6.1241,81.1185,78.98,83,94,14.0,LK,1627169673
Ilulissat,69.2167,-51.1,44.62,76,75,6.91,GL,1627169673
Clovis,36.8252,-119.7029,105.85,18,75,4.0,US,1627169674
Machalí,-34.1833,-70.6667,46.85,84,87,1.41,CL,1627169674
Prieska,-29.6641,22.7474,41.38,49,0,4.36,ZA,1627169675
Gander,48.9682,-54.5906,59.38,100,90,11.01,CA,1627169675
Sorong,-0.8833,131.25,78.75,78,100,11.95,ID,1627169675
Itupiranga,-5.1347,-49.3267,78.44,47,49,0.63,BR,1627169676
San Vicente,-26.6167,-54.1333,61.79,61,2,3.91,AR,1627169676
Vardø,70.3705,31.1107,46.08,85,98,27.85,NO,1627169471
Boffa,10.1667,-14.0333,75.51,92,100,9.24,GN,1627169677
Terrace,54.5163,-128.6035,67.42,82,75,5.75,CA,1627169677
Katherine,-14.4667,132.2667,70.12,46,64,5.75,AU,1627169677
Bandarbeyla,9.4942,50.8122,78.64,66,46,25.64,SO,1627169501
Saint-Pierre,-21.3393,55.4781,69.44,88,90,5.75,RE,1627169678
Egvekinot,66.3167,-179.1667,48.06,90,100,3.15,RU,1627169678
Requena,39.4883,-1.1004,71.38,39,91,3.0,ES,1627169679
Boden,65.8252,21.6886,57.2,85,29,3.02,SE,1627169679
Badarwās,24.9667,77.5667,79.32,85,69,6.64,IN,1627169680
Slavutych,51.5196,30.7343,65.61,69,69,2.71,UA,1627169680
Prince Rupert,54.3161,-130.3201,62.69,76,75,3.44,CA,1627169519
Matata,-37.8833,176.75,55.15,66,59,8.55,NZ,1627169681
Williamsport,41.2412,-77.0011,78.82,54,90,5.75,US,1627169681
Santa Cruz de la Sierra,-17.8,-63.1667,80.65,50,0,16.11,BO,1627169681
Plettenberg Bay,-34.0527,23.3716,52.48,40,21,5.12,ZA,1627169682
Shingū,33.7333,135.9833,81.91,74,85,8.61,JP,1627169682
Ambilobe,-13.2,49.05,62.91,83,46,3.15,MG,1627169682
Dali,25.7,100.1833,64.56,90,54,3.13,CN,1627169683
Itapuranga,-15.5622,-49.9486,69.1,35,0,3.83,BR,1627169683
Umluj,25.0213,37.2685,84.15,49,0,5.68,SA,1627169684
San Quintín,30.4833,-115.95,71.73,75,94,10.18,MX,1627169684
Great Yarmouth,52.6083,1.7305,64.45,98,100,8.66,GB,1627169684
Loreto,22.2667,-101.9667,71.73,48,89,7.34,MX,1627169685
Melfi,40.9965,15.6514,77.23,57,10,6.33,IT,1627169685
Manado,1.487,124.8455,79.57,78,40,4.61,ID,1627169465
Gilgit,35.9221,74.3087,84.06,43,2,1.61,PK,1627169686
Tual,-5.6667,132.75,79.84,74,100,8.28,ID,1627169686
Kamenka,51.3223,42.7678,61.43,71,64,5.14,RU,1627169474
Itarema,-2.9248,-39.9167,78.48,76,19,13.56,BR,1627169687
Tres Arroyos,-38.3739,-60.2798,49.1,60,100,10.22,AR,1627169687
La Primavera,5.4906,-70.4092,75.29,88,100,5.84,CO,1627169688
Kieta,-6.2167,155.6333,85.24,67,90,3.78,PG,1627169688
La Santisima Trinidad,-14.8333,-64.9,82.38,69,0,0.0,BO,1627169688
Arman',59.7,150.1667,56.5,92,100,6.6,RU,1627169689
Tautira,-17.7333,-149.15,78.01,73,18,7.09,PF,1627169689
Dunedin,-45.8742,170.5036,45.81,52,86,13.0,NZ,1627169574
Sept-Îles,50.2001,-66.3821,64.92,87,40,1.99,CA,1627169558
Măicăneşti,45.5,27.5,64.38,66,1,4.9,RO,1627169690
Alghero,40.5589,8.3181,86.99,50,0,1.14,IT,1627169690
Talaya,61.3833,152.75,63.82,71,96,11.63,RU,1627169691
Bodden Town,19.2833,-81.25,87.8,76,20,1.01,KY,1627169691
Severo-Kuril'sk,50.6789,156.125,56.84,91,70,2.06,RU,1627169691
Lincoln,40.8,-96.667,90.84,66,75,1.99,US,1627169632
Dvinskoy Bereznik,62.8551,42.7072,51.3,66,99,4.81,RU,1627169692
Channel-Port aux Basques,47.5702,-59.1367,56.12,86,73,9.08,CA,1627169485
Tolaga Bay,-38.3667,178.3,56.07,69,99,9.64,NZ,1627169693
Cartagena,10.3997,-75.5144,83.82,84,40,9.22,CO,1627169693
Jacqueville,5.2052,-4.4146,76.91,80,82,10.85,CI,1627169693
San-Pédro,4.7485,-6.6363,73.96,80,95,5.37,CI,1627169694
Klaksvík,62.2266,-6.589,50.92,96,83,13.0,FO,1627169694
Jiayuguan City,39.8167,98.3,75.7,49,84,7.4,CN,1627169695
Yumen,40.2833,97.2,75.7,47,30,1.23,CN,1627169695
College,64.8569,-147.8028,68.2,64,75,17.27,US,1627169437
Itoman,26.1247,127.6694,82.78,92,75,17.27,JP,1627169695
The Valley,18.217,-63.0578,82.54,83,40,14.97,AI,1627169696
Vestmannaeyjar,63.4427,-20.2734,51.58,89,86,14.79,IS,1627169696
Palmer,42.1584,-72.3287,76.55,61,75,0.0,US,1627169697
Talnakh,69.4865,88.3972,49.26,90,100,1.19,RU,1627169697
Merauke,-8.4667,140.3333,76.69,86,96,5.66,ID,1627169698
Province of Mantua,45.1667,10.7833,78.04,77,20,9.08,IT,1627169698
Wenling,28.3669,121.36,77.92,83,100,26.8,CN,1627169698
Lindi,-10.0,39.7167,69.13,59,3,11.56,TZ,1627169699
Padang,-0.9492,100.3543,73.45,82,92,4.07,ID,1627169699
Karla,59.3723,24.9275,60.06,80,0,3.44,EE,1627169699
Porangatu,-13.4408,-49.1486,72.27,35,18,3.4,BR,1627169700
Rome,43.2128,-75.4557,79.84,66,1,5.75,US,1627169700
Cuiluan,47.72,128.648,75.7,75,100,5.39,CN,1627169701
Saint-Avold,49.1027,6.7006,62.83,99,21,4.85,FR,1627169701
Gamba,-2.65,10.0,70.23,85,61,2.93,GA,1627169701
São João da Barra,-21.6403,-41.0511,69.26,72,0,12.68,BR,1627169706
Inírida,3.8653,-67.9239,73.56,98,100,2.19,CO,1627169606
Kyaikkami,16.08,97.5675,78.26,92,100,15.66,MM,1627169707
Manokwari,-0.8667,134.0833,80.08,72,100,1.72,ID,1627169707
Amursk,50.2261,136.8994,82.63,62,38,9.57,RU,1627169708
Oktyabr'skiy,54.4815,53.471,50.94,92,44,4.59,RU,1627169708
São Geraldo do Araguaia,-6.4006,-48.555,79.77,37,47,3.15,BR,1627169708
Grão Mogol,-16.5594,-42.8897,55.35,74,8,3.83,BR,1627169709
Santo Antônio do Sudoeste,-26.0736,-53.7253,60.76,67,1,3.62,BR,1627169709
Sambava,-14.2667,50.1667,67.19,78,62,11.74,MG,1627169709
Shelopugino,51.6514,117.5599,57.94,93,98,4.9,RU,1627169710
Fengcheng,40.4536,124.0717,79.5,73,12,1.41,CN,1627169710
Taltal,-25.4,-70.4833,60.06,68,7,3.98,CL,1627169711
Aklavik,68.2191,-135.0107,68.83,72,75,8.05,CA,1627169711
Aksaray,38.3726,34.0254,63.99,74,0,8.99,TR,1627169712
Kodinsk,58.6881,99.1844,72.03,57,3,2.39,RU,1627169712
Kirs,59.3388,52.2447,40.89,80,37,4.47,RU,1627169712
Mananjary,-21.2167,48.3333,64.62,89,100,11.61,MG,1627169713
Kavaratti,10.5669,72.642,81.97,78,80,19.62,IN,1627169551
North Platte,41.1239,-100.7654,90.99,35,1,1.99,US,1627169479
San Felipe,10.3399,-68.7425,75.34,88,100,2.42,VE,1627169713
Buckeye,33.3703,-112.5838,87.6,62,85,5.75,US,1627169602
Balyqshy,47.0667,51.8667,66.2,48,0,4.47,KZ,1627169582
Batemans Bay,-35.7167,150.1833,53.91,42,16,13.94,AU,1627169714
Apache Junction,33.4151,-111.5496,83.35,79,90,3.0,US,1627169257
Zabaykal'sk,49.6333,117.3167,63.99,69,10,13.49,RU,1627169715
Tubmanburg,6.8708,-10.8172,72.03,94,98,1.81,LR,1627169715
Yoichi,43.2039,140.7703,82.78,73,19,4.43,JP,1627169715
Pitimbu,-7.4706,-34.8086,73.99,83,49,13.65,BR,1627169716
Basco,20.4487,121.9702,83.1,85,93,31.0,PH,1627169716
Ambulu,-8.345,113.6058,72.61,82,1,2.93,ID,1627169717
Saint-Tite,46.7334,-72.5658,75.51,73,91,4.83,CA,1627169717
La Ronge,55.1001,-105.2842,75.45,41,75,11.5,CA,1627169497
Begamganj,23.6,78.3333,74.34,96,98,7.2,IN,1627169718
Zhigansk,66.7697,123.3711,63.12,59,26,17.27,RU,1627169718
Teknāf,20.8624,92.3058,79.77,89,81,3.74,BD,1627169718
